No.,ID,Vietnames_names,Province,final_lat,final_lon,Giai đoạn 1981-2000,Số năm,Giai đoạn 2011-2020,Số năm.1,elevation,distance_to_coast_km
1,p.ainghiatv,Ái Nghĩa,Quảng Nam,15.883,108.267,1981-2000,20,2011-2020,10,6,8.875618867689768
2,aluoi,A Lưới,Huế,16.22,107.283,1981-2000,20,2011-2020,10,612,49.69270960232954
3,anbien,An Biên/ U Minh Thượng,Kiên Giang,9.698,105.151,1981-2000,20,2011-2017,7,9,18.06815107415454
4,anchi,An Chỉ,Quảng Ngãi,14.99,108.81,1981-2000,20,2011-2020,10,11,13.396676278648615
5,p.anhoatv,An Hòa,Bình Định,14.583828,108.911043,1981-2000,20,2011-2020,10,38,16.34772641840063
6,p.anhuu,An Hữu,Tiền Giang,10.333,105.9,1981-2000,20,2011-2017,7,4,25.78386543107193
7,ankhanh,An Khánh,Hà Nội,20.999,105.719,1981-2000,20,2011-2017,7,9,95.97784467910319
8,ankhe,An Khê,Gia Lai,13.95,108.65,1981-2000,20,2011-2020,10,383,61.00878742892411
9,p.anlai,Án Lại,Cao Bằng,22.717,106.317,1981-2000,20,2011-2017,7,539,190.64835968113647
10,anphu,An Phụ,Hải Dương,20.9877,106.516,1981-2000,20,2011-2020,10,9,13.593368993964344
11,p.anthi,Ân Thi,Hưng Yên,20.8,106.083,1981-2000,20,2011-2017,7,8,53.677242105113365
12,ayunpa,Ayun Pa,Gia Lai,13.42,108.45,1981-2000,20,2011-2020,10,147,84.91571181465456
13,p.bacang,Ba Càng,Vĩnh Long,10.05,105.985,1981-2000,20,2011-2017,7,10,11.81033203557579
14,bacgiang,Bắc Giang,Bắc Giang,21.3,106.217,1981-2000,20,2011-2020,10,12,53.93016926626946
15,p.bache,Ba Chẽ,Quảng Ninh,21.250492,107.097469,1981-2000,20,2011-2017,7,100,23.67954727276173
16,backan,Bắc Kạn,Bắc Kạn,22.15,105.82,1981-2000,20,2011-2020,10,183,151.29181476964968
17,baclieu,Bạc Liêu,Bạc Liêu,9.283,105.717,1981-2000,20,2011-2020,10,6,9.112147437440509
18,camnhuong,Bắc Mê,Hà Giang,22.7419,105.3728,1981-2000,20,2011-2020,10,464,231.3551865026072
19,bacninh,Bắc   Ninh,Bắc   Ninh,21.183,106.083,,,2011-2020,10,12,60.81463465342752
20,bacquang,Bắc Quang,Hà Giang,22.5,104.867,1981-2000,20,2011-2020,10,133,246.0138751407274
21,bacson,Bắc Sơn,Lạng Sơn,21.9,106.317,1981-2000,20,2011-2020,10,407,103.06939970483569
22,bacyen,Bắc Yên,Sơn La,21.25,104.417,1981-2000,20,2011-2020,10,564,217.18934724455448
23,badon,Ba Đồn,Quảng Bình,17.75,106.417,1981-2000,20,2011-2020,10,3,0.4289760569253559
24,bahangdoi,Ba Hàng Đồi,Hòa Bình,20.582,105.685,1981-2000,20,2011-2017,7,24,73.63735329305933
25,baichay,Bãi Cháy,Quảng Ninh,20.967,107.067,1981-2000,20,2011-2020,10,181,0.06611774426708482
26,baithuong,Bái Thượng,Thanh Hoá,19.9,105.383,1981-2000,20,2011-2020,10,20,52.63560639615751
27,p.bakhe,Ba Khe,Yên Bái,21.433,104.633,1981-2000,20,2011-2017,7,1249,213.45372684856508
28,bandon,Bản Đôn,DakLak,12.9,107.76,1981-2000,20,2011-2020,10,185,159.5053599417469
29,p.banggiangtv,Bằng Giang,Cao Bằng,22.65,106.267,1981-2000,20,2011-2020,10,206,184.4282527300273
30,banha,Bá Nha,Hải Dương,20.8814,106.4597,1992-2000,9,2011-2020,10,10,24.032419932783476
31,p.banlau,Bản Lầu,Lào Cai,22.564842,104.07037,1981-2000,20,2011-2017,7,195,316.08845814226305
32,p.banyentv,Bản Yên,Điện Biên,21.279254,103.016175,1981-2000,20,2011-2020,10,483,340.8233923292825
33,p.baohatv,Bảo Hà,Lào Cai,22.167,104.35,1981-2000,20,2011-2020,10,77,269.09820894701403
34,p.piengve,Bao La 1,Hòa Bình,20.7018,104.8825,1981-2000,20,2011-2017,7,583,141.17878417394348
35,baolac,Bảo Lạc,Cao Bằng,22.95,105.67,1981-2000,20,2011-2020,10,310,236.04452869652897
36,baoloc,Bảo Lộc,Lâm Đồng,11.533,107.817,1981-2000,20,2011-2020,10,820,75.0653885775875
37,p.baoson,Bảo Sơn,Bắc Giang,21.35,106.317,1981-2000,20,2011-2017,7,14,49.72679827528843
38,p.baoyentv,Bảo Yên,Yên Bái,22.167,104.583,1981-2000,20,2011-2020,10,305,248.09371706479354
39,batbat,Bất Bạt,Hà Nội,21.1824,105.3185,1981-2000,20,2011-2017,7,20,138.65483422291695
40,batha,Ba Thá,Hà Nội,20.8072,105.7011,1981-2000,20,2011-2020,10,6,90.11076043083693
41,bathap,Ba Tháp,Ninh Thuận,11.7309,109.1588,1981-2000,20,2011-2017,7,651,6.659954432731754
42,p.bathuoc,Bá Thước,Thanh Hoá,20.283,105.183,1981-2000,20,2011-2017,7,80,89.93653081885725
43,p.batmot,Bát Mọt,Thanh Hoá,20.05032,105.021841,1981-2000,20,2011-2017,7,407,93.66950086410989
44,bato,Ba Tơ,Quảng Ngãi,14.767,108.733,1981-2000,20,2011-2020,10,44,28.30334567801467
45,batri,Ba Tri,Bến Tre,10.05,106.6,1981-2000,20,2011-2020,10,8,6.46702153475593
46,p.batxat,Bát Xát,Lào Cai,22.51678,103.903215,1981-2000,20,2011-2017,7,96,328.076636719343
47,p.baunuoc,Bàu Nước,Hà Tĩnh,18.15,106.133,1981-2000,20,2011-2017,7,47,11.637413059330706
48,p.bautrang,Bầu Trắng,Bình Thuận,11.067,108.417,1981-2000,20,2011-2017,7,63,3.099061156735786
49,bavi,Ba Vì,Hà Nội,21.15,105.417,1981-2000,20,2011-2020,10,19,128.0795368981419
50,bencat,Bến Cát,Bình Dương,11.149,106.585,1981-2000,20,2011-2017,7,4,55.12616050930545
51,bende,Bến Đế,Ninh Bình,20.3629,105.7967,1981-2000,20,2011-2020,10,13,46.80195640780213
52,benho,Bến Hồ,Bắc Ninh,21.09,106.077,1981-2000,20,2011-2020,10,13,59.229940673905354
53,benluc,Bến Lức,Long An,10.654,106.472,1981-2000,20,2011-2020,10,10,21.85573723646329
54,p.bensoi,Bến Sỏi,Tây Ninh,11.283,106.017,1981-2000,20,2011-2017,7,-4,104.28851119832756
55,p.bentretv,Bến Tre,Bến Tre,10.219698,106.434813,,,2011-2020,10,8,6.885322533422541
56,bienho,Biển Hồ,Gia Lai,14.049,108.018,1981-2000,20,2011-2017,7,767,125.43443631997594
57,bienhoa,Biên Hoà,Đồng Nai,10.92,106.82,,,2011-2020,10,12,26.364661662247403
58,p.binhchanh,Bình Chánh,TPHCM,10.667,106.567,1981-2000,20,2011-2017,7,5,18.606627436730033
59,p.binhdaitv,Bình Đại,Bến Tre,10.2,106.7,1981-2000,20,2011-2020,10,10,0.7059365151323344
60,binhdien,Bình Điền,  Huế,16.35,107.5,1981-2000,20,2011-2017,7,15,23.86378825773588
61,p.binhgia,Bình Gia,Lạng Sơn,21.95,106.35,1981-2000,20,2011-2017,7,386,107.29866196492817
62,p.binhlong,Bình Long,Bình Phước,11.633,106.6,1981-2000,20,2011-2017,7,91,106.39809316281887
63,p.binhlu,Bình Lư,Lai Châu,22.317,103.633,1981-2000,20,2011-2017,7,621,342.83605232170135
64,binhtuong,Bình Tường,Phú Yên,13.9333,108.8667,1981-2000,20,2011-2020,10,84,40.629886890582284
65,p.binhxuyen,Bình Xuyên,Vĩnh Phúc,21.267,105.65,1981-2000,20,2011-2017,7,4,106.58928531091318
66,p.bohant,Bố Hạ,Bắc Giang,21.467,106.2,1981-2000,20,2011-2017,7,11,67.47104503444082
67,bongson,Bồng Sơn,Bình Định,14.399,109.0351,1981-2000,20,2011-2020,10,274,10.165866378226594
68,p.budang,Bù Đăng,Bình Phước,11.8,107.25,1981-2000,20,2011-2017,7,251,125.19404951175997
69,p.budop,Bù Đốp,Bình Phước,11.833,106.6,1981-2000,20,2011-2017,7,108,128.23185489049595
70,p.bunho,Bù Nho,Bình Phước,11.717,106.867,1981-2000,20,2011-2017,7,123,113.30797261160589
71,buonho,Buôn Hồ,Đăk Lắk,12.917,108.627,1981-2000,20,2011-2020,10,299,69.65214882229928
72,buonmethuot,Buôn Mê Thuột,Đắc Lắk,12.667,108.05,1981-2000,20,2011-2020,10,461,122.29250003394519
73,caibe,Cái Bè,Tiền Giang,10.41,106.1,1981-2000,20,2011-2017,7,3,18.871098354187666
74,cailay,Cai Lậy,Tiền Giang,10.4,106.12,1981-2000,20,2011-2020,10,6,17.620548965471766
75,camau,Cà Mau,Cà Mau,9.183,105.15,1981-2000,20,2011-2020,10,15,34.81341776147405
76,camdan,Cẩm Đàn,Bắc Giang,21.3456,106.7833,1981-2000,20,2011-2020,10,45,35.21417564028256
77,p.camkhe,Cẩm Khê,Phú Thọ,21.383,105.133,1981-2000,20,2011-2017,7,14,161.71341904325521
78,p.camletv,Cẩm Lệ,Đà Nẵng,16.0,108.2,1981-2000,20,2011-2020,10,10,0.47394581342031533
79,p.camly,Cẩm Ly,Quảng Bình,17.2,106.65,1981-2000,20,2011-2017,7,49,19.279451309638013
80,p.cammy,Cẩm Mỹ,Đồng Nai,10.767,107.25,1981-2000,20,2011-2017,7,205,27.625834413081666
81,p.camnhan,Cẩm Nhân,Yên Bái,21.952043,104.952292,1981-2000,20,2011-2017,7,53,203.19134882355618
82,p.camnhuongtv,Cẩm Nhượng,Hà Tĩnh,18.267,106.1,1981-2000,20,2011-2020,10,9,0.7340250293638533
83,p.thachquangtv,Cẩm Thuỷ,Thanh Hóa,20.2173,105.4777,1981-2000,20,2011-2020,10,21,59.497160555493174
84,p.camxuyen,Cẩm Xuyên,Hà Tĩnh,18.233,106.017,1981-2000,20,2011-2017,7,15,8.568610331338824
85,cana,Cà Ná,Ninh Thuận,11.5275,108.8362,1981-2000,20,2011-2017,7,129,19.338788995959312
86,p.candangtv,Cần Đăng,Tây Ninh,11.533,106.0,1981-2000,20,2011-2020,10,10,125.24619118290862
87,p.canduoc,Cần Đước,Long An,10.6,106.667,1981-2000,20,2011-2017,7,17,8.654719798176748
88,p.cangio,Cần Giờ,TPHCM,10.413345,106.950416,1981-2000,20,2011-2017,7,6,1.557817441922559
89,canglong,Càng Long,Trà Vinh,9.983,106.2,1981-2000,20,2011-2020,10,4,11.432175752816644
90,cantho,Cần Thơ,Cần Thơ,10.033,105.767,1981-2000,20,2011-2020,10,8,6.338121735108713
91,caobang,Cao Bằng,Cao Bằng,22.667,106.25,1981-2000,20,2011-2020,10,232,186.65380659454243
92,caolanh,Cao Lãnh,Đồng Tháp,10.467,105.633,1981-2000,20,2011-2020,10,11,54.69392185103171
93,caophong,Cao Phong,Hòa Bình,20.699,105.3185,1981-2000,20,2011-2017,7,209,106.95424225394108
94,catkhe,Cát Khê,Hải Dương,21.055278,106.311934,1981-2000,20,2011-2020,10,9,34.5346307184482
95,p.catlai,Cát Lái,TPHCM,10.757934,106.781855,1981-2000,20,2011-2017,7,10,7.985248881044007
96,p.cau14tv,Cầu 14,Đắc Lắk,12.617,107.933,1981-2000,20,2011-2020,10,326,133.8644112754821
97,p.caulautv,Câu Lâu,Quảng Nam,15.85,108.283,1981-2000,20,2011-2020,10,6,10.11636207989622
98,cauram,Cầu Rậm,Hà Nội,20.682,105.669,1981-2000,20,2011-2017,7,18,84.22217352894295
99,causon,Cầu Sơn,Bắc Giang,21.2833,106.2,1981-2000,20,2011-2020,10,15,54.374023487200304
100,chanhchu,Chanh Chử,Hải Phòng,20.7405,106.3986,1992-2000,9,2011-2020,10,15,21.383141295365895
101,chaudoc,Châu Đốc,An Giang,10.7,105.133,1981-2000,20,2011-2020,10,7,65.26655744289182
102,chauo,Châu Ổ,Quảng Ngãi,15.3056,108.7494,1981-2000,20,2011-2017,7,7,3.3482441605611553
103,p.chauthanh,Châu Thành,Tiền Giang,10.433,106.35,1981-2000,20,2011-2017,7,5,15.083188290271844
104,chiemhoa,Chiêm Hóa,Tuyên Quang,22.15,105.267,1981-2000,20,2011-2020,10,60,189.49860648756672
105,p.maison,Chiềng Mai,Sơn La,21.199,103.9852,1981-2000,20,2011-2017,7,954,249.08310574957775
106,p.chiengon,Chiêng On,Sơn La,20.980825,104.170593,1981-2000,20,2011-2017,7,929,219.78213922902728
107,p.chiengyen,Chiêng Yên,Sơn La,20.765688,105.001873,1981-2000,20,2011-2017,7,643,136.15329480626278
108,chilang,Chi Lăng,Lạng Sơn,21.65,106.57,1981-2000,20,2011-2020,10,75,69.82294480585425
109,chilinh,Chí Linh,Hải Dương,21.083,106.383,1981-2000,20,2011-2020,10,11,27.81091192076968
110,p.phuxuyen,Chợ Cháy,Hà Nội,20.699,105.8352,1981-2000,20,2011-2017,7,8,73.33017274200512
111,p.chodon,Chợ Đồn,Bắc Kạn,22.217,105.633,1981-2000,20,2011-2017,7,604,168.7131748929746
112,p.chogao,Chợ Gạo,Tiền Giang,10.35,106.467,1981-2000,20,2011-2017,7,4,4.074540771963712
113,p.cholachtv,Chợ Lách,Bến Tre,10.267,106.117,1981-2000,20,2011-2020,10,5,2.950635985104414
114,p.chomhau,chomhau,Thanh Hoá,20.2,104.867,1981-2000,20,2011-2017,7,229,114.82734383574835
115,chomoi,Chợ Mới,An Giang,10.55,105.4,1981-2000,20,2011-2020,10,6,66.70778511629136
116,p.chomoitv,Chợ Mới,Bắc Kạn,21.883,105.783,1981-2000,20,2011-2020,10,71,130.5752174589228
117,p.chonthanh,Chơn Thành,Bình Phước,11.4,106.617,1981-2000,20,2011-2017,7,48,80.75008180723752
118,chora,Chợ Rã,Bắc Kạn,22.45,105.717,1981-2000,20,2011-2020,10,152,184.9592269985632
119,p.chotrangtv,Chợ Tràng,Nghệ An,18.573,105.631,1981-2000,20,2011-2020,10,10,16.07103636386998
120,chu,Chũ,Bắc Giang,21.3672,106.5083,1981-2000,20,2011-2020,10,23,40.85500881077027
121,p.chucson,Chúc Sơn,Hà Nội,20.915,105.685,1981-2000,20,2011-2017,7,6,96.17002751800773
122,p.chuletv,Chu Lễ,Hà Tĩnh,18.227,105.695,1981-2000,20,2011-2020,10,15,35.532754052401536
123,p.chuoitv,Chuối,Thanh Hóa,19.543,105.653,1981-2000,20,2011-2020,10,13,15.369086392483156
124,chuprong,Chư Prông,Gia Lai,13.65,107.85,1981-2000,20,2011-2017,7,298,147.39168358705166
125,chuse,Chư Sê,Gia Lai,13.699,108.085,1981-2000,20,2011-2017,7,514,122.14850127049837
126,p.cocly,Cốc Ly,Lào Cai,22.507,104.195,1981-2000,20,2011-2017,7,191,301.83635519359547
127,concuong,Con Cuông,Nghệ An,19.05,104.883,1981-2000,20,2011-2020,10,30,77.16566062598129
128,conoi,Cò Nòi,Sơn La,21.133,104.15,1981-2000,20,2011-2020,10,675,230.84863942607234
129,cuacam,Cửa Cấm,Hải Phòng,20.8667,106.6167,1992-2000,9,2011-2020,10,4,8.844207182414655
130,p.cuadattv,Cửa Đạt,Thanh Hóa,19.867,105.283,1981-2000,20,2011-2020,10,46,60.68289604064795
131,p.cuahoitv,Cửa Hội,Nghệ An,18.763,105.723,1981-2000,20,2011-2020,10,8,3.121503276561923
132,cuaong,Cửa Ông,Quảng Ninh,21.017,107.35,1981-2000,20,2011-2020,10,137,0.5649839965666394
133,p.cuchi,Củ Chi,Hồ Chí Minh,10.965,106.485,1981-2000,20,2011-2017,7,15,43.08889966017416
134,cucphuong,Cúc Phương,Ninh Bình,20.25,105.72,,,2011-2020,10,134,42.28668941642432
135,cumong,Cù Mông,Phú Yên,13.666,109.185,1981-2000,20,2011-2017,7,203,3.5386786639683163
136,p.cungsontv,Củng Sơn,Phú Yên,13.05,108.98333,1981-2000,20,2011-2020,10,42,36.3994205321564
137,p.cuthontv,Cụ Thôn,Thanh Hóa,19.989,105.903,1981-2000,20,2011-2020,10,8,8.75049129735738
138,p.daban,Đá Bàn,Khánh Hòa,12.732,109.135,1981-2000,20,2011-2017,7,462,11.656679205295438
139,p.dailoc,Đại Lộc,Hà Tĩnh,18.449,105.785,1981-2000,20,2011-2017,7,11,12.081869901311032
140,daingai,Đại Ngải,Sóc Trăng,9.9324,105.8731,1981-2000,20,2011-2020,10,8,1.0091790808772263
141,p.daitu,Đại Từ,Thái Nguyên,21.632,105.618,1981-2000,20,2011-2017,7,83,125.97448514717257
142,dakdoa,Đăk Đoa,Gia Lai,14.349,108.402,1981-2000,20,2011-2017,7,1167,75.04296501134618
143,dakglei,Đắc Glei,Gia Lai,15.032,107.7518,1981-2000,20,2011-2017,7,731,105.3578963460756
144,dakmil,Đăk Mil,Đắc Nông,12.45,107.617,,,2011-2020,10,736,166.85318987737216
145,daknong,Đắc Nông,Đắc Nông,12.0,107.683,1981-2000,20,2011-2020,10,595,128.3886912804295
146,daksomie,Đăk Sơ Mei,Gia Lai,14.166,108.152,,,,,674,107.63125202112181
147,dakto,Đắk Tô,Kon Tum,14.65,107.833,1981-2000,20,2011-2020,10,616,123.71524539365984
148,dalat,Đà Lạt,Lâm Đồng,11.95,108.45,1981-2000,20,2011-2020,10,1469,71.49091941376464
149,p.damroi,Đầm Dơi,Cà Mau,8.998,105.201,1981-2000,20,2011-2017,7,11,21.08358722227941
150,p.damrong,Đam Rông,Lâm Đồng,12.173,108.272,1981-2000,20,2011-2017,7,745,97.41160482724716
151,danang,Đà Nẵng,Đà Nẵng,16.033,108.2,1981-2000,20,2011-2020,10,7,2.4959614167690534
152,p.danhim,Đa Nhim,Lâm Đồng,12.117,108.583,1981-2000,20,2011-2017,7,1446,63.2903060079204
153,p.daovien,Đạo Viện,Tuyên Quang,21.999,105.335,1981-2000,20,2011-2017,7,91,173.41421118740635
154,dapcau,Đáp Cầu,Bắc Ninh,21.2028,106.0972,1981-2000,20,2011-2020,10,9,60.10536327310263
155,dapday,Đập Đáy,Hà Nội,21.082,105.652,1981-2000,20,2011-2017,7,19,103.11134036413104
156,p.dateh,Đạ Tẻh,Lâm Đồng,11.565,107.501,1981-2000,20,2011-2017,7,142,97.49446949805366
157,p.dautiengtv,Dầu Tiếng,Bình Dương,11.309,106.331,1981-2000,20,2011-2020,10,28,83.7325981283201
158,p.dedi,Đề Gi,Bình Định,14.115,109.201,1981-2000,20,2011-2017,7,6,1.181913559891666
159,p.diemmac,Điềm Mặc,Thái Nguyên,21.819,105.63,1981-2000,20,2011-2017,7,132,137.2054795832268
160,dienbien,Điện Biên,Điện Biên,21.367,103.0,1981-2000,20,2011-2020,10,481,346.7951240080908
161,dinhbinh,Hồ Định Bình,Bình Định,14.132,108.002,,,,,1159,123.9965023557521
162,p.dinhca,Đình Cả,Thái Nguyên,21.729,105.979,1981-2000,20,2011-2017,7,90,104.33175067896482
163,dinhhoa,Định Hoá,Thái Nguyên,21.917,105.633,1981-2000,20,2011-2020,10,106,144.1849131765353
164,dinhlap,Đình Lập,Lạng Sơn,21.5333,107.1,1981-2000,20,2011-2020,10,226,39.78138522405053
165,p.doanhung,Đoan Hùng,Phú Thọ,21.633,105.183,1981-2000,20,2011-2017,7,19,165.83771056031685
166,p.dodao,Đò Đao,Nghệ An,18.865,105.501,1981-2000,20,2011-2017,7,17,14.928409107439078
167,p.dodiem,Đò Điểm,Hà Tĩnh,18.415,105.285,1981-2000,20,2011-2017,7,191,56.28382527452185
168,p.doi95,Đồi 95,Tây Ninh,11.582,106.335,1981-2000,20,2011-2017,7,33,109.94900677263514
169,doluong,Đô Lương,Nghệ An,18.9,105.3,1981-2000,20,2011-2020,10,22,34.31728519088264
170,donganh,Đông Anh,Hà Nội,21.099,105.0352,1981-2000,20,2011-2017,7,197,159.57695196361075
171,p.dongcuu,Đông Cửu,Phú Thọ,21.015,105.018,1981-2000,20,2011-2017,7,914,153.8416722158929
172,dongha,Đông Hà,Quảng Trị,16.85,107.083333,1981-2000,20,2011-2020,10,8,6.53157779797248
173,p.donghai,Đông Hải,Bạc Liêu,9.278,105.751,1981-2000,20,2011-2017,7,2,7.239470303358477
174,p.donghieu,Đông Hiếu,Nghệ An,19.299,105.501,1981-2000,20,2011-2017,7,127,26.53458764947493
175,donghoi,Đồng Hới,Quảng Bình,17.472941,106.615384,1981-2000,20,2011-2020,10,8,1.6919611074982883
176,p.dongkhe,Đông Khê,Cao Bằng,22.433,106.433,1981-2000,20,2011-2017,7,480,157.64554027738404
177,dongban,Đồng Pan,Tây Ninh,11.549,106.1684,1981-2000,20,2011-2017,7,32,115.65716704325858
178,dongphu,Đồng Phú,Bình Phước,11.533,106.9,1981-2000,20,2011-2020,10,75,92.68426623762912
179,p.dongtamtv,Đồng Tâm,Quảng Bình,17.906,106.015,1981-2000,20,2011-2020,10,12,32.237184125552524
180,p.dongtrangtv,Đồng Trăng,Khánh Hòa,12.295,108.939,1981-2000,20,2011-2020,10,51,26.016666055756254
181,p.dongtrieu,Đông Triều,Quảng Ninh,21.082,106.518,1981-2000,20,2011-2017,7,11,14.60155596585897
182,p.dongvan,Đồng Văn,Hà Giang,23.216,105.233,,,2011-2020,10,1629,283.2181286977167
183,dongxuyen,Đông Xuyên,Hải Phòng,20.6667,106.55,1992-2000,9,2011-2020,10,13,3.8490618796954807
184,p.duatv,Dừa,Nghệ An,18.995,105.037,1981-2000,20,2011-2020,10,15,60.668290962084534
185,ducpho,Đức Phổ,Quảng Ngãi,14.8,108.9667,1981-2000,20,2011-2017,7,24,4.240215525342889
186,ducxuyen,Đức Xuyên,Đắc Nông,12.3,107.98,1981-2000,20,2011-2020,10,542,128.3371317034866
187,p.eahdinh,Ea H'đing,Đăk Lăk,12.898,108.118,1981-2000,20,2011-2017,7,575,121.44893138638557
188,eahleo,EaHleo,Đắc Lắc,13.2167,108.2,,,2011-2020,10,621,113.71278669921725
189,eakmat,EaKmat,Đắc Lắk,12.68,108.14,,,2011-2020,10,540,113.05557869361982
190,eaknop,eaknop,Đắc Lắc,12.799,108.4518,1981-2000,20,2011-2017,7,481,83.66169900427285
191,easoup,Ea Sup,Đắk Lăk,13.066,107.885,1981-2000,20,2011-2017,7,195,150.6520272453723
192,ganhhao,Gành Hào,Bạc Liêu,9.037,105.398,1981-2000,20,2011-2020,10,13,3.944705843211527
193,p.luongtai,Gia Lương,Bắc Ninh,21.015,106.201,1981-2000,20,2011-2017,7,44,45.85369808177284
194,p.giangtv,Giàng,Thanh Hóa,19.882,105.757,1981-2000,20,2011-2020,10,8,16.69771591750999
195,giangson,Giang Sơn,Đăk Lăk,12.512,108.164,1981-2000,20,2011-2020,10,523,107.61087259619677
196,giaothuy,Giao Thuỷ,Quảng Nam,15.844,108.123,1981-2000,20,2011-2020,10,5,19.41265107694869
197,p.giaraibd,Giá Rai,Bạc Liêu,9.232,105.468,1981-2000,20,2011-2017,7,13,13.756564358058686
198,p.giavongtv,Gia Vòng,Quảng Trị,16.965,106.944,1981-2000,20,2011-2020,10,32,19.788904513854465
199,giavuc,Giá Vực,Quảng Ngãi,14.698,108.568,1981-2000,20,2011-2017,7,267,47.57589891983752
200,p.gionggieng,Giồng Riềng,Kiên Giang,9.898,105.318,1981-2000,20,2011-2017,7,4,22.657918794484804
201,p.giongtrom,Giồng Trôm,Bến Tre,10.237,106.45,1981-2000,20,2011-2017,7,11,5.871604831474611
202,gocong,Gò Công,Tiền Giang,10.35,106.67,1981-2000,20,2011-2017,7,6,6.76028973373401
203,p.gocong,Gò Công Đông,Tiền Giang,10.365,106.685,1981-2000,20,2011-2017,7,4,7.5117419766941556
204,p.godauhatv,Gò Dầu Hạ,Tây Ninh,11.087,106.262,1981-2000,20,2011-2020,10,7,69.87506093754558
205,p.goquao,Gò Quao,Kiên Giang,9.732,105.285,1981-2000,20,2011-2017,7,7,23.363065044740164
206,p.habangtv,Hà Bằng,Phú Yên,13.364,109.128,1981-2000,20,2011-2020,10,24,11.76183429237255
207,hadong,Hà Đông,Hà Nội,20.967,105.75,1981-2000,20,2011-2020,10,14,92.88226033235586
208,hagiang,Hà Giang,Hà Giang,22.816,104.966,1981-2000,20,2011-2020,10,217,263.6072761276065
209,p.hahoa,Hạ Hòa,Phú Thọ,21.082,105.001,1981-2000,20,2011-2017,7,377,160.49912966669388
210,haiduong,Hải Dương,Hải Dương,20.933,106.3,1981-2000,20,2011-2020,10,7,36.85570066034129
211,p.halang,Hạ Lạng,Cao Bằng,22.682,106.668,1981-2000,20,2011-2017,7,477,168.57897718839013
212,p.hamrong,Hàm Rồng,Lào Cai,22.215,104.568,1981-2000,20,2011-2017,7,164,252.14418173849094
213,hamtan,Hàm Tân,Bình Thuận,10.683,107.766,1981-2000,20,2011-2020,10,5,3.2810345539901014
214,hamyen,Hàm Yên,Tuyên Quang,22.061,105.086,1981-2000,20,2011-2020,10,23,198.10031718991218
215,hatinh,Hà Tĩnh,Hà Tĩnh,18.35,105.9,1981-2000,20,2011-2020,10,10,9.99571174207189
216,p.haumybac,Hậu Mỹ Bắc,Tiền Giang,10.615,106.068,1981-2000,20,2011-2017,7,4,41.8058127709459
217,p.tanan,Hậu Nghĩa,LongAn,10.5657,106.4018,1981-2000,20,2011-2017,7,7,21.317747919483157
218,p.hien,Hiên,Quảng Nam,15.939,107.649,1981-2000,20,2011-2017,7,683,44.494695608509176
219,p.hiepductv,Hiệp Đức,Quảng Nam,15.588,108.115,1981-2000,20,2011-2020,10,37,40.53902024966432
220,hiephoa,Hiệp Hoà,Bắc Giang,21.35,105.967,1981-2000,20,2011-2020,10,15,79.03166293514533
221,hoabinh,Hòa Bình,Hòa Bình,20.816667,105.333333,1981-2000,20,2011-2020,10,49,115.7417365546889
222,p.hoaduyettv,Hỏa Duyệt,Hà Tĩnh,18.406,105.596,1981-2000,20,2011-2020,10,90,31.564173651917187
223,p.hoaian,Hoài Ân,Bình Định,14.265,108.885,1981-2000,20,2011-2017,7,92,29.43489230596413
224,hoaiduc,Hoài Đức,Hà Nội,21.0667,105.75,,,,,11,92.84947122262034
225,hoainhon,Hoài Nhơn,Bình Định,14.516667,109.033333,1981-2000,20,2011-2020,10,14,5.246836387475972
226,p.hoangmai,Hoàng Mai,Nghệ An,19.282,105.685,1981-2000,20,2011-2017,7,28,8.082152941447166
227,hoangsuphi,Hoàng Su Phì,Hà Giang,22.75,104.683,1981-2000,20,2011-2020,10,523,278.6186083643728
228,p.hoanhbo,Hoành Bồ,Quảng Ninh,21.049,107.051,1981-2000,20,2011-2017,7,129,1.6914121360635963
229,p.hocmon,Hóc Môn,Hồ Chí Minh,10.882,106.601,1981-2000,20,2011-2017,7,9,28.073266492325196
230,p.hodautieng,Hồ Dầu Tiếng,Tây Ninh,11.382,106.235,1981-2000,20,2011-2017,7,12,96.30883434166954
231,p.hoianag,Hội An,An Giang,10.415,105.551,1981-2000,20,2011-2020,10,6,53.73528826120911
232,hoixuan,Hồi Xuân,Thanh Hoá,20.366667,105.116667,1981-2000,20,2011-2020,10,67,100.35471890238037
233,p.hondat,Hòn Đất,Kiên Giang,10.265,104.835,1981-2000,20,2011-2017,7,21,7.187835703901528
234,hondau,Hòn Dấu,Hải Phòng,20.666,106.8,1981-2000,20,2011-2020,10,181,1.420499385822219
235,p.hongngu,Hồng Ngự,Đồng Tháp,10.848,105.351,1981-2000,20,2011-2017,7,7,91.61262295134043
236,p.honkhoi,Hòn Khói,Khánh Hòa,12.548,109.218,1981-2000,20,2011-2017,7,10,0.2126345522714684
237,honngu,Hòn Ngư,Nghệ An,18.799201,105.770731,1981-2000,20,2011-2020,10,6,2.437101220601289
238,hue,Huế,Huế,16.433333,107.583333,1981-2000,20,2011-2020,10,20,11.075603380982827
239,hungthanh,Hưng Thạnh/Trường Xuân,Đồng Tháp,10.654,105.765,1981-2000,20,2011-2020,10,14,60.06296426023247
240,hungthi,Hưng Thi,Hòa Bình,20.523,105.672,1981-2000,20,2011-2020,10,96,68.71285535950116
241,hungyen,Hưng Yên,Hưng Yên,20.65,106.05,1981-2000,20,2011-2020,10,13,50.30768327095464
242,huongkhe,Hương Khê,Hà Tĩnh,18.183,105.717,1981-2000,20,2011-2020,10,19,36.669709403105806
243,huongmy,Hương Mỹ,Bến Tre,10.032321,106.335109,1981-2000,20,2011-2017,7,5,0.22968755291314172
244,huongson,Hương Sơn,Hà Tĩnh,18.517,105.433,1981-2000,20,2011-2020,10,8,37.204133163659684
245,huulung,Hữu Lũng,Lạng Sơn,21.5,106.35,1981-2000,20,2011-2020,10,31,61.16243713845694
246,p.katum,Kà Tum,Tây Ninh,11.665,106.218,1981-2000,20,2011-2017,7,27,123.95370014197282
247,kbang,K'Bang,Gia Lai,14.166,108.618,1981-2000,20,2011-2017,7,609,59.992051184170535
248,p.nagiang,Kéo Yên 1,Cao Bằng,22.9324,106.0686,,,,,531,219.8055497881424
249,p.kesach,Kê Sách,Sóc Trăng,9.765,105.985,1981-2000,20,2011-2017,7,25,5.502189694702036
250,p.khamduc,Khâm Đức,Quảng Nam,15.432,107.785,1981-2000,20,2011-2017,7,376,77.25195605961419
251,p.khanhhoa,Khánh Hòa,Yên Bái,22.07,104.591,1981-2000,20,2011-2017,7,678,242.11080702197265
252,p.khanhvinh,Khánh Vĩnh,Khánh Hòa,12.287,108.776,1981-2000,20,2011-2017,7,300,43.7157639917354
253,p.khaupha,Khâu Pha,Yên Bái,21.082,104.135,,,,,687,228.94890316870814
254,p.khebo,Khe Bò,Nghệ An,19.126,104.501,,,,,461,117.97439827722762
255,p.khela,Khe La,Nghệ An,18.682,105.401,1981-2000,20,2011-2017,7,16,34.26437309741909
256,khesanh,Khe Sanh,Quảng Trị,16.633,106.733,1981-2000,20,2011-2020,10,395,50.747073550183
257,p.khoaichau,Khoái Châu,Hưng Yên,20.832,105.968,1981-2000,20,2011-2017,7,6,65.77915154269937
258,kienbinh,Kiến Bình,Long An,10.604,106.031,1981-2000,20,2011-2020,10,13,41.3786042884705
259,p.kiengiangtv,Kiến Giang,Quảng Bình,17.122,106.748,1981-2000,20,2011-2020,10,27,19.999174336340765
260,p.kienlao,Kiến Lao,Yên Bái,21.049,104.085,1981-2000,20,2011-2017,7,997,231.32431408441207
261,kienluong,Kiên Lương,Kiên Giang,10.282,104.651,1981-2000,20,2011-2017,7,7,7.191982469353809
262,p.kimanh,Kim Anh,Hà Nội,21.215,105.751,1981-2000,20,2011-2017,7,11,95.03612909346049
263,kimboi,Kim Bôi,Hòa Bình,20.6667,105.5333,1981-2000,20,2011-2020,10,72,89.96828511962775
264,p.kimlongtv,kim Long,Huế,16.422,107.565,1981-2000,20,2011-2020,10,16,13.38746767736749
265,kimtien,Kim Tiến,Hòa Bình,20.6324,105.5185,1981-2000,20,2011-2017,7,497,87.80337950087315
266,konplong,Kon Plong,Kon Tum,14.49,108.185,,#VALUE!,2011-2020,10,611,94.51098738314091
267,kontum,Kon Tum,Kon Tum,14.333,108.0,1981-2000,20,2011-2020,10,528,117.38113947665464
268,krong,K'Rong,Gia Lai,14.303807,108.485605,,#VALUE!,,#VALUE!,581,68.499073705184
269,krongkma,Krông Jing,Đắc Lắc,12.549,108.4018,,#VALUE!,,#VALUE!,440,82.31578455812092
270,krongbuk,Krong Buk,Đăk Lăk,12.758,108.395,1981-2000,20,2011-2020,10,469,88.98238127940732
271,p.krongpa,Krông Pa,Gia Lai,13.298,108.701,1981-2000,20,2011-2017,7,455,58.6101938578536
272,kyanh,Kỳ Anh,Hà Tĩnh,18.083,106.283,1981-2000,20,2011-2020,10,5,3.136950601181031
273,p.kyphu,Kỳ Phú,Thái Nguyên,21.532,105.635,1981-2000,20,2011-2017,7,184,118.86394813204826
274,p.lachtruong,Lạch Trường,Thanh Hóa,19.882,105.918,,#VALUE!,,#VALUE!,16,3.700316156557648
275,lacson,Lạc Sơn,Hòa Bình,20.45,105.45,1981-2000,20,2011-2020,10,32,78.09837183653367
276,p.lahien,La Hiên,Thái Nguyên,21.749,106.135,1981-2000,20,2011-2017,7,298,96.3061351503414
277,p.laivung,Lai Vung,Đồng Tháp,10.632,105.268,,#VALUE!,,#VALUE!,8,66.21172477366662
278,lak,Lak,Đắc Lắk,12.367,108.2,,#VALUE!,2011-2020,10,460,103.74795843853201
279,p.lamsontv,Lâm Sơn,Hòa Bình,20.887,105.487,1981-2000,20,2011-2020,10,103,113.16599231926
280,p.lamthao,Lâm Thao,Phú Thọ,21.315,105.285,1981-2000,20,2011-2017,7,18,144.63350188256626
281,lang,Láng,Hà Nội,21.0333,105.8,1981-2000,20,2011-2020,10,34,87.53298469843992
282,langa,La Ngà,Đồng Nai,11.15,107.25,,#VALUE!,,#VALUE!,70,57.71505200895469
283,p.langau,La Ngâu,Bình Thuận,11.182,107.785,1981-2000,20,2011-2017,7,255,45.70798747409666
284,p.langbong,Làng Bông,Lào Cai,22.21667,104.41667,1981-2000,20,2011-2017,7,581,265.6961319563454
285,p.langcan,Lăng Can,Tuyên Quang,22.465,105.235,1981-2000,20,2011-2017,7,259,216.23124230771552
286,p.langcang,Làng Cang,Yên Bái,21.049,104.018,1981-2000,20,2011-2017,7,654,237.24629106247568
287,p.langgiang,Lạng Giang,Bắc Giang,21.349,106.251,1981-2000,20,2011-2017,7,9,54.53637958527278
288,p.langnha,Làng Nhà,Tuyên Quang,21.832,105.435,1981-2000,20,2011-2017,7,115,154.04158470906262
289,langson,Lạng Sơn,Lạng Sơn,21.833333,106.766668,1981-2000,20,2011-2020,10,256,87.39180942972995
290,hanoi,Hà Nội/Láng Thượng,Hà Nội,21.015,105.801,,#VALUE!,,#VALUE!,18,87.42420273162544
291,laocai,Lào Cai,Lào Cai,22.3833,103.9667,1981-2000,20,2011-2020,10,496,315.20468599278695
292,p.lentv,Lên,Thanh Hóa,19.989,105.833,1981-2000,20,2011-2020,10,10,14.626962642109097
293,p.lethuytv,Lệ Thủy,Quảng Bình,17.224,106.787,1981-2000,20,2011-2020,10,5,8.457720311615029
294,p.lienhuong,Liên Hương,Bình Thuận,11.232,108.718,1981-2000,20,2011-2017,7,17,3.576814754976042
295,lienkhuong,Liên Khương,Lâm Đồng,11.75,108.383333,1981-2000,20,2011-2020,10,963,66.56508915929446
296,p.linhho,Linh Hồ,Hà Giang,22.704,105.0539,1981-2000,20,2011-2017,7,111,248.34237400009556
297,locbinh,Lộc Bình,Lạng Sơn,21.7657,106.9185,1981-2000,20,2011-2017,7,296,70.65371343657905
298,locninh,Lộc Ninh,Bình Phước,11.8157,106.5851,1981-2000,20,2011-2017,7,134,126.59152194534647
299,p.longdientay,Long Điền Tân,Bạc Liêu,9.165,105.251,,#VALUE!,,#VALUE!,12,25.063249051418833
300,p.longdinhtv,Long Định,Tiền Giang,10.404,106.262,1981-2000,20,2011-2017,7,6,16.07610868485046
301,p.longphu,Long Phú,Sóc Trăng,9.598,106.135,1981-2000,20,2011-2017,7,6,2.092854282224998
302,p.longthanh,Long Thành,Đồng Nai,10.748,107.022,1981-2000,20,2011-2017,7,15,6.790107936832156
303,longxuyen,Long Xuyên,An Giang,10.3965,105.4313,1981-2000,20,2011-2017,7,15,56.89251001392263
304,lucnam,Lục Nam,Bắc Giang,21.2989,106.4011,1981-2000,20,2011-2020,10,11,39.7318260683855
305,lucngan,Lục Ngạn,Bắc Giang,21.383,106.55,1981-2000,20,2011-2020,10,16,41.227022810525945
306,lucyen,Lục Yên,Yên Bái,22.098909,104.721666,1981-2000,20,2011-2020,10,89,231.94721944611706
307,p.lynhantv,Lý Nhân,Thanh Hóa,20.03,105.592,1981-2000,20,2011-2020,10,15,39.67852431659535
308,maichau,Mai Châu,Hòa Bình,20.65,105.05,1981-2000,20,2011-2020,10,427,123.97618008006228
309,p.maihoatv,Mai Hóa,Quảng Bình,17.806,106.181,1981-2000,20,2011-2020,10,138,11.66175440477435
310,p.maisuu,Mai Sưu,Bắc Giang,21.249,106.655,1981-2000,20,2011-2017,7,150,24.820004841040376
311,p.malam,Ma Lâm,Bình Thuận,11.099,108.0518,1981-2000,20,2011-2017,7,47,20.88445351187384
312,mangbut,Măng Buk,Kon Tum,14.835,108.197,,#VALUE!,,#VALUE!,1184,79.84166012645844
313,mangyang,Mang Yang,Gia Lai,14.0,108.24,1981-2000,20,2011-2017,7,692,102.36167940536185
314,mdrak,M'ĐRắc,Đắc Lắk,12.733,108.767,1981-2000,20,2011-2020,10,446,48.614497136881866
315,p.meovac,Mèo Vạc,Hà Giang,23.1262,105.4013,1981-2000,20,2011-2017,7,1128,265.981984192879
316,p.mepu1,Mê Pu,Bình Thuận,11.2323,107.6351,1981-2000,20,2011-2017,7,104,61.99825003264683
317,mieumon,Miếu Môn,Hà Nội,20.83,105.63,1981-2000,20,2011-2017,7,17,97.9279111584559
318,minhdai,Minh Đài,Phú Thọ,21.167,105.05,1981-2000,20,2011-2020,10,108,164.41723381951536
319,p.minhhoa,Minh Hóa,Quảng Bình,17.7823,106.0185,1981-2000,20,2011-2017,7,177,28.29294995698635
320,minhlong,Minh Long,Quảng Ngãi,14.9323,108.7185,1981-2000,20,2011-2017,7,158,24.65262567506812
321,p.tamduong,Minh Quang,Vĩnh Phúc,21.3296,105.5446,1981-2000,20,2011-2017,7,10,118.9845287671282
322,p.minhthanh,Minh Thanh,Cao Bằng,22.6657,106.0352,1981-2000,20,2011-2017,7,511,192.6739621301728
323,p.mocay,Mỹ Hưng,Bến Tre,10.1301,106.3516,1981-2000,20,2011-2017,7,5,3.2077070801774594
324,mocchau,Mộc Châu,Sơn La,20.833,104.683,1981-2000,20,2011-2020,10,957,166.50019935161734
325,mochoa,Mộc Hóa,Long An,10.78,105.93,1981-2000,20,2011-2020,10,6,63.21102151225802
326,moduc,Mộ Đức,Quảng Ngãi,15.0323,108.8851,1981-2000,20,2011-2017,7,9,4.3172716238715205
327,mongcai,Móng Cái,Quảng Ninh,21.517,107.967,1981-2000,20,2011-2020,10,5,4.227650675241836
328,mucangchai,Mù Cang Chải,Yên Bái,21.866667,104.05,1981-2000,20,2011-2020,10,974,284.4811384691356
329,p.muine,Mũi Né,Bình Thuận,10.9323,108.2851,1981-2000,20,2011-2017,7,15,0.3446985332127892
330,muongang,Mường Ẳng,Điện Biên,21.5161,103.2329,1981-2000,20,2011-2017,7,567,333.71604626069484
331,p.muonghum,Mường Hum,Lào Cai,22.5324,103.7019,1981-2000,20,2011-2017,7,661,347.01974523956204
332,p.muongkhuong,Mường Khương,Lào Cai,22.749,104.1186,1981-2000,20,2011-2017,7,936,323.3954871248439
333,muongla,Mường La,Sơn La,21.517,104.033,1981-2000,20,2011-2017,7,324,266.6077954413436
334,p.muonglattv,Mường Lát,Thanh Hóa,20.5239,104.5566,1981-2000,20,2011-2020,10,176,160.21628090381904
335,laichau,Mường Lay,Điện Biên,22.067,103.15,1981-2000,20,2011-2020,10,241,375.7810235304582
336,muongman,Mương Mán,Bình Thuận,10.9656,108.0018,1981-2000,20,2011-2017,7,13,12.347005877036
337,p.muongmo,Mường Mô,Lai Châu,22.1991,102.9186,1981-2000,20,2011-2017,7,619,403.5853932082487
338,p.muongnhe,Mường Nhé,Lai Châu,22.1491,102.4186,1981-2000,20,2011-2017,7,1192,442.3554811831484
339,p.muongsai,Mường Sai 2,Sơn La,21.6157,103.6852,1981-2000,20,2011-2017,7,166,301.39642945770197
340,muongte,Mường Tè,Lai Châu,22.367,102.833,1981-2000,20,2011-2020,10,387,421.32301658886024
341,p.muongcha,Mường Trà,Điện Biên,21.9324,102.8686,1981-2000,20,2011-2017,7,1033,390.3672125979841
342,p.muongtrai,Mường Trai,Sơn La,21.599,103.9519,1981-2000,20,2011-2017,7,174,278.89665938033545
343,p.muongxentv,Mường Xén,Nghệ An,19.4151,104.1178,1981-2000,20,2011-2020,10,181,163.92292813995468
344,p.myphuoc,Mỹ Phước Tây,Tiền Giang,10.4657,106.2018,1981-2000,20,2011-2017,7,12,24.627479809300862
345,mytho,Mỹ Tho,Tiền Giang,10.35,106.4,1981-2000,20,2011-2020,10,4,4.3994493046994885
346,p.nahangtv,Na Hang,Tuyên Quang,22.3688,105.3893,1981-2000,20,2011-2020,10,113,197.70124330805808
347,p.nahutv,Na Hu,Lai Châu,22.3826,102.8695,1981-2000,20,2011-2020,10,593,418.39141203546893
348,p.namban,Nậm Ban,Lâm Đồng,11.849,108.3351,,#VALUE!,,#VALUE!,966,78.32917290234738
349,namcan,Nậm Cần,Cà Mau,8.7703,105.0149,,#VALUE!,,#VALUE!,9,8.005422590099643
350,namdinh,Nam Định,Nam Định,20.4,106.15,1981-2000,20,2011-2020,10,9,31.835641689850465
351,namgiang,Nậm Giàng,Lai   Châu,22.2547,103.1594,1981-2000,20,2011-2020,10,562,385.46248081476574
352,nammuc,Nậm Mức,Điện Biên,21.8781,103.2978,1981-2000,20,2011-2020,10,367,350.8662038045557
353,p.ngandua,Phong Thạnh,Bạc Liêu,9.5657,105.4684,,#VALUE!,,#VALUE!,5,47.91478520357846
354,nganson,Ngân Sơn,Bắc Kạn,22.433,105.983,1981-2000,20,2011-2020,10,697,170.62433870323557
355,nghiakhanh,Nghĩa Khánh,Nghệ An,19.2213,105.4123,1981-2000,20,2011-2020,10,43,29.84013654009249
356,p.ngoclac,Ngọc Lạc,Thanh Hóa,20.0324,105.4019,1981-2000,20,2011-2017,7,48,56.54736854488699
357,p.ngoctratv,Ngọc Trà,Thanh Hóa,19.6138,105.7728,1981-2000,20,2011-2020,10,13,2.213037948996317
358,ngoihut,Ngòi   Hút,Yên Bái,21.9242,104.4979,1981-2000,20,2011-2020,10,231,243.64881841156586
359,p.ngoinhuitv,Ngòi Nhù,Lào Cai,22.1443,104.2742,1981-2000,20,2011-2020,10,232,274.91209423626407
360,ngoithia,Ngòi Thia,Yên Bái,21.8478,104.6549,1981-2000,20,2011-2020,10,47,225.39780774862786
361,nguyenbinh,Nguyên Bình,Cao Bằng,22.647244,105.95232,1981-2000,20,2011-2020,10,510,193.72799822152555
362,p.nhabebd,Nhà Bè,HCM,10.6656,106.7684,1981-2000,20,2011-2020,10,50,0.04592691861233574
363,nhaho,Nha Hố,Ninh Thuận,11.7,108.9,1981-2000,20,2011-2017,7,59,15.103274331002853
364,nhatrang,Nha Trang,Khánh Hòa,12.217,109.2,1981-2000,20,2011-2020,10,12,1.0162880133563383
365,nhoquan,Nho Quan,Ninh Bình,20.333,105.733,1994-2000,7,2011-2020,10,11,47.92927449611427
366,nhuxuan,Như Xuân,Thanh Hoá,19.633,105.567,1981-2000,20,2011-2020,10,8,23.7012102416927
367,ninhbinh,Ninh Bình,Ninh Bình,20.233333,105.966667,1981-2000,20,2011-2020,10,9,26.5669903047868
368,p.ninhhoatv,Ninh Hòa,Khánh Hòa,12.509,109.1198,1981-2000,20,2011-2020,10,15,7.230527635852426
369,p.nongsontv,Nông Sơn,Quảng Nam,15.7039,108.0324,1981-2000,20,2011-2020,10,10,37.63468911211946
370,nt1.5,NT1-5,Nghệ An,19.38,105.5,1981-2000,20,2011-2017,7,82,28.599375687946655
371,nt3.2,NT3-2,Nghệ An,19.32,105.28,1981-2000,20,2011-2017,7,77,47.505031601773446
372,nuiba,Núi Bà Đen,Tây Ninh,11.4,106.15,1981-2000,20,2011-2017,7,66,103.48468195075002
373,nuisap,Núi Sập,An Giang,10.265657,105.268443,1981-2000,20,2011-2017,7,6,33.96775537739084
374,omon,Ô Môn,Cần Thơ,10.25,105.54,1981-2000,20,2011-2017,7,11,40.629205216362365
375,p.maky,Pac Ma,Lai Châu,22.4785,102.6134,1981-2000,20,2011-2020,10,265,446.81222383088857
376,p.panamcum,Pa Nậm Cúm,Lai Châu,22.5991,103.1686,1981-2000,20,2011-2017,7,325,399.3218418679432
377,p.patan,Pa Tần,Lai Châu,22.4657,103.1519,1981-2000,20,2011-2017,7,890,394.81494783324996
378,phadin,Pha Đin,Sơn La,21.567,103.52,1981-2000,20,2011-2020,10,1396,311.9265836158964
379,phalai,Phải Lại,Bắc Ninh,21.1,106.23,1981-2000,20,2011-2020,10,10,43.72621983073085
380,phanrang,Phan Rang,Ninh Thuận,11.5833,108.9833,1994-2000,7,2011-2020,10,9,5.498522431104771
381,phanthiet,Phan Thiết,Bình Thuận,10.9333,108.1,1981-2000,20,2011-2020,10,7,1.819362414945589
382,p.phuluong,Phố Đu,Thái Nguyên,21.7324,105.7019,1981-2000,20,2011-2017,7,46,125.37754505598342
383,p.pholu,Phố Lu,Lào Cai,22.3157,104.1852,1981-2000,20,2011-2017,7,74,291.8618702922425
384,p.phongcoc,Phong Cốc,QuangNinh,20.849,106.8352,1981-2000,20,2011-2017,7,1,0.9806654596827036
385,phorang,Phố Ràng,Lào Cai,22.233,104.467,1981-2000,20,2011-2020,10,153,262.10381205101817
386,p.phoyen,Phổ Yên,Thái Nguyên,21.399,105.8685,1981-2000,20,2011-2017,7,12,90.5944437176411
387,p.phubinh,Phú Bình,Thái Nguyên,21.4323,105.9685,1981-2000,20,2011-2017,7,10,83.48540506954986
388,p.phucdo,Phúc Đồng,Thanh Hóa,20.1657,105.5185,1981-2000,20,2011-2017,7,49,52.8792559938382
389,phuclocphuong,Phúc Lộc Phương,Bắc Ninh,21.239999,105.900017,1981-2000,20,2011-2020,10,12,80.82425195325243
390,phuctho,Phúc Thọ,Hà Nội,21.15,105.52,1981-2000,20,2011-2017,7,10,117.4544261162947
391,p.phucyen,Phúc Yên,Vĩnh Phúc,21.2324,105.7019,1981-2000,20,2011-2017,7,14,100.43641606963892
392,p.phulac,Phú Lạc,Phú Yên,12.949,109.4018,1981-2000,20,2011-2017,7,9,2.845955525955358
393,phulam,Phú Lâm,Phú Yên,13.0757,109.2996,1981-2000,20,2011-2020,10,12,3.282428083465471
394,phulien,Phủ Liễn,Hải Phòng,20.8,106.633,1981-2000,20,2011-2020,10,7,8.868935307034649
395,phuluong,Phú Lương,Hải Dương,20.949169,106.345873,1981-2000,20,2011-2020,10,6,31.786052461625538
396,phuly,Phủ Lý,Hà Nam,20.55,105.917,1981-2000,20,2011-2020,10,17,60.53859779943377
397,phumy,Phù Mỹ,Bình Định,14.183,109.067,1981-2000,20,2011-2017,7,20,11.689397658952878
398,phunghiep,Phụng Hiệp,Hậu Giang,9.8,105.82,1981-2000,20,2011-2020,10,4,15.501605864464434
399,phuoc,Phú Ốc,  Huế,16.5333,107.4667,1981-2000,20,2011-2020,10,14,9.837473739296355
400,p.nhiha,Phước hà,Ninh Thuận,11.5014,108.7712,1981-2000,20,2011-2017,7,145,20.272680342761504
401,p.phuochoatv,Phước Hòa,Bình Dương,11.265,106.7535,1981-2000,20,2011-2020,10,36,64.04483395143015
402,phuoclong,Phước Long,Bình Phước,11.833333,106.983333,1981-2000,20,2011-2017,7,206,125.45815564880328
403,p.phutan,Quách Phẩm,Cà Mau,8.8823,104.8851,,#VALUE!,,#VALUE!,6,9.000654724079816
404,phutho,Phú Thọ,Phú Thọ,21.40629412,105.2245817,1981-2000,20,2011-2020,10,16,153.21253390250425
405,p.phuthong,Phủ Thông,Bắc Kạn,22.266,105.869,1981-2000,20,2011-2017,7,206,159.449091969416
406,phuxuyen,Phú Xuyên,Hà Nội,20.77,105.9,1981-2000,20,2011-2017,7,11,69.25334240612041
407,phuyen,Phù Yên,Sơn La,21.267,104.633,1981-2000,20,2011-2020,10,358,201.8003174125675
408,pleiku,Pleiku,Gia Lai,13.966667,108.016667,1981-2000,20,2011-2020,10,768,126.79149647176708
409,p.quanba,Quản Bạ,Hà Giang,23.0657,105.0019,1981-2000,20,2011-2017,7,876,282.707361268745
410,p.quangchautv,Quang Châu,Thanh Hóa,19.7769,105.8506,1981-2000,20,2011-2020,10,8,1.8118593769415772
411,p.quangcutv,Quang Cư,Vĩnh Phúc,21.5268,105.49,1981-2000,20,2011-2020,10,62,132.0378249277867
412,quangha,Quảng Hà,Quảng Ninh,21.45,107.75,1981-2000,20,2011-2020,10,6,1.0554543669924896
413,quangngai,Quảng Ngãi,Quảng Ngãi,15.116,108.8,1981-2000,20,2011-2020,10,7,7.84871170759144
414,p.quangyen,Quang Yên,Cao Bằng,22.6824,106.4352,1981-2000,20,2011-2017,7,684,180.87884378106077
415,p.quanhanh,Quán Hành,Nghệ An,18.7823,105.6352,1981-2000,20,2011-2017,7,7,7.476641407561671
416,p.queson,Quế Sơn,Quảng Nam,15.6564,108.1542,1981-2000,20,2011-2017,7,168,33.32032286365243
417,quychau,Quỳ Châu,Nghệ An,19.566,105.116,1981-2000,20,2011-2020,10,90,70.90076475843392
418,p.quyetchientv,Quyết Chiến,Thái Bình,20.5144,106.2537,1981-2000,20,2011-2020,10,14,27.776001641467577
419,quyhop,Quỳ Hợp,Nghệ An,19.328,105.183,1981-2000,20,2011-2020,10,79,56.49180243851517
420,quynhluu,Quỳnh Lưu,Nghệ An,19.166,105.633,1981-2000,20,2011-2020,10,7,9.23918953949924
421,quynhnhai,Quỳnh Nhai,Sơn La,21.85,103.57,1981-2000,20,2011-2020,10,217,326.98684921929225
422,quynhon,Quy Nhơn,Bình Định,13.766,109.216,1981-2000,20,2011-2020,10,12,2.346540568819745
423,rachgia,Rạch Giá,Kiên Giang,10.0,105.067,1981-2000,20,2011-2020,10,181,1.5791397508046248
424,p.rachgoi,Tân Hòa,Hậu Giang,9.899,105.6684,,#VALUE!,,#VALUE!,5,20.424994935211018
425,p.sadec,Tam Nông,Đồng Tháp,10.299,105.7851,1981-2000,20,2011-2017,7,7,32.39548828106335
426,sahuynh,Sa Huỳnh,Quảng Ngãi,14.666,109.068,1981-2000,20,2011-2017,7,4,1.0511089291877966
427,samson,Sầm Sơn,Thanh Hoá,19.75,105.9,1981-2000,20,2011-2020,10,14,0.8664660736453307
428,sapa,Sa Pa,Lào Cai,22.35,103.816,1981-2000,20,2011-2020,10,1692,327.33252117269217
429,sathay,Sa Thầy,Kon Tum,14.42,107.78,1981-2000,20,2011-2017,7,578,137.987106742604
430,sinho,Sìn Hồ,Lai Châu,22.366,103.233,1981-2000,20,2011-2020,10,1609,382.84423708533177
431,socson,Sóc Sơn,Hà Nội,21.2657,105.8519,1981-2000,20,2011-2017,7,14,86.44754710141946
432,soctrang,Sóc Trăng,Sóc Trăng,9.6,105.966,1981-2000,20,2011-2020,10,6,17.298252644238012
433,p.sondiemtv,Sơn Diệm,Hà Tĩnh,18.5109,105.3658,1981-2000,20,2011-2020,10,13,43.955615348230616
434,sondong,Sơn Động,Bắc Giang,21.333,106.85,1981-2000,20,2011-2020,10,52,34.404551114017046
435,p.songdoctv,Sông Đốc,Cà Mau,9.037,104.83,,#VALUE!,2011-2020,10,5,2.4985570212575645
436,p.songiangtv,Sơn Giang,Quảng Ngãi,15.0137,108.5203,1981-2000,20,2011-2020,10,120,39.92585827918088
437,songluy,Sông   Luỹ,Bình Thuận,11.21194458,108.3452759,1981-2000,20,2011-2020,10,31,19.734488383915135
438,songma,Sông Mã,Sơn La,21.067,103.733,1981-2000,20,2011-2020,10,337,263.95878528887073
439,p.songmao,Sùng Nhơn,Bình Thuận,11.249,108.5018,,#VALUE!,,#VALUE!,13,11.080564215004403
440,p.songpha,Sông Pha,Ninh Thuận,11.8323,108.7018,1981-2000,20,2011-2017,7,191,41.21105878753488
441,sonha,Sơn Hạ,Quảng Ngãi,14.883,108.533,1981-2000,20,2011-2017,7,60,45.37113062793505
442,sonla,Sơn La,Sơn La,21.324,103.897,1981-2000,20,2011-2020,10,804,264.49334701982986
443,p.sonnam,Sơn Nam,Tuyên Quang,21.5157,105.5019,1981-2000,20,2011-2017,7,41,130.4037089389785
444,sontay,Sơn Tây,Hà Nội,21.133,105.5,1981-2000,20,2011-2020,10,20,119.31160610255026
445,p.sontra,Sơn Trà,DaNang,16.0369,108.2175,1981-2000,20,2011-2020,10,6,1.3670020409331833
446,p.bansopcop,Sốp Cộp,Sơn La,20.967,103.58,1981-2000,20,2011-2017,7,794,272.84596162604976
447,p.sosao,Tân Định,Bình Dương,11.0323,106.6351,,#VALUE!,,#VALUE!,18,41.11052914980301
448,p.suoihai,Suối Hai,Hà Nội,21.167,105.383,1981-2000,20,2011-2017,7,24,131.80083634952115
449,p.suoikiet,Suối Kiết,Bình Thuận,11.049,107.7018,1981-2000,20,2011-2017,7,119,41.55442074685562
450,p.suoivang,Suối Vàng,Lâm Đồng,11.999,108.3684,1981-2000,20,2011-2017,7,1422,81.90892594640626
451,p.tagiatv,Tà Gia,Lai Châu,21.8242,103.831,1981-2000,20,2011-2020,10,340,304.6351492807873
452,p.tabkhoatv,Tạ Khoa,Sơn La,21.2,104.35,1981-2000,20,2011-2017,7,847,218.86136719471668
453,tambinh,Tam Bình,Tiền Giang,10.02,105.97,,#VALUE!,,#VALUE!,4,8.165061954887333
454,tamdao,Tam Đảo,Vĩnh Phúc,21.466,105.65,1981-2000,20,2011-2020,10,820,114.17568345605964
455,tamduong,Tam Đường,Lai Châu,22.416,103.483,1981-2000,20,2011-2020,10,874,361.43513767240637
456,tamky,Tam Kỳ,Quảng Nam,15.566,108.466,1981-2000,20,2011-2020,10,6,10.870479507589756
457,p.tamthonhiep,Tam Thôn Hiệp 1,HCM,10.5656,106.8851,1981-2000,20,2011-2017,7,12,1.3285967062542654
458,tanan,Tân An,Long An,10.53,106.42,1981-2000,20,2011-2020,10,14,18.118388514828982
459,p.tanang,Tà Nàng,Sơn La,20.9657,104.4185,1981-2000,20,2011-2017,7,294,197.37888230084727
460,tanchau,Tân Châu,An Giang,10.72,105.35,1981-2000,20,2011-2020,10,9,79.08750839410698
461,p.tangthanh,Tăng Thành,Nghệ An,18.999,105.4519,1981-2000,20,2011-2017,7,9,17.050642904398977
462,tanhiep,Tân Hiệp,Kiên Giang,10.08,105.25,1981-2000,20,2011-2020,10,8,20.02052586180855
463,tanlac,Tân Lạc,Hoà Bình,20.5876,105.2369,1981-2000,20,2011-2017,7,138,104.80241626809804
464,tanmy,Tân Mỹ,Quảng Bình,17.706,106.465,1981-2000,20,2011-2020,10,1,0.31259052438697293
465,tansonnhat,Tân Sơn Nhất,TP Hồ Chí Minh,10.817,106.667,,#VALUE!,2011-2020,10,9,18.141197004810856
466,p.tanuyen,TT Uyên Hưng,Bình Dương,11.049,106.8018,,#VALUE!,,#VALUE!,12,40.24530769129971
467,tapao,Tà Pao,Bình Thuận,11.1444,107.7222,1981-2000,20,2011-2020,10,107,48.45481440856088
468,p.tatong,Tà Tổng 1,Lai Châu,22.3626,102.6909,1981-2000,20,2011-2017,7,2040,433.23063236656947
469,tayhieu,Tây Hiếu,Nghệ An,19.32,105.4,1981-2000,20,2011-2020,10,56,37.37951370077777
470,tayninh,Tây Ninh,Tây Ninh,11.333,106.116,1981-2000,20,2011-2020,10,5,100.30441423894491
471,p.taytrang,Tây Trang,Điện Biên,21.2209,102.9371,1981-2000,20,2011-2017,7,1075,345.0465527431003
472,p.thacbatv,Thác Bà,Yên Bái,21.7542,105.0498,1981-2000,20,2011-2020,10,33,183.98635021297525
473,thacgieng,Thác Riềng,Bắc Kạn,22.092361,105.875941,1981-2000,20,2011-2020,10,115,142.77269289703088
474,thachhan,Thạch Hãn,Quảng Trị,16.75,107.2333,1981-2000,20,2011-2020,10,10,12.047223987857178
475,p.thanhmytn,Thạch Mỹ,Lâm Đồng,11.7656,108.5018,1981-2000,20,2011-2020,10,1011,58.50124967143782
476,thachthat,Thạch Thất,Hà Nội,21.05,105.59,1981-2000,20,2011-2017,7,25,109.38715793201047
477,p.thacmuoi,Thác Muối,Nghệ An,18.849,105.1852,1981-2000,20,2011-2017,7,26,47.46086901888304
478,thaibinh,Thái Bình,Thái Bình,20.45,106.35,1981-2000,20,2011-2020,10,14,17.64364704011348
479,thainguyen,Thái Nguyên,Thái Nguyên,21.6,105.833,1981-2000,20,2011-2020,10,29,105.66198655685885
480,p.thanhbinhtv,Thanh Bình,Lâm Đồng,11.7794,108.2799,1981-2000,20,2011-2020,10,856,74.00716597538482
481,thanhhoa,Thanh Hóa,Thanh Hóa,19.75,105.783,1981-2000,20,2011-2020,10,6,9.211524755635487
482,p.thanhmai,Thanh Mai,Nghệ An,18.6323,105.3685,,#VALUE!,,#VALUE!,31,40.02685612810458
483,thanhoai,Thanh Oai,Hà Nội,20.9,105.77,1981-2000,20,2011-2017,7,7,87.50111173724426
484,thanhson,Thanh Sơn,Phú Thọ,21.195431,105.15506,1981-2000,20,2011-2020,10,43,155.66844095187986
485,p.thanhthuy,Thanh Thủy,Phú Thọ,21.1824,105.2852,1981-2000,20,2011-2017,7,43,142.08490431340152
486,thanuyen,Than Uyên,Lai Châu,21.95,103.883,1981-2000,20,2011-2020,10,570,303.79745193946565
487,thatkhe,Thất Khê,Lạng Sơn,22.25,106.466,1981-2000,20,2011-2020,10,173,137.10394990670383
488,p.thoibinh,Thới Bình,Cà Mau,9.349,105.0851,1981-2000,20,2011-2017,7,6,28.492438131007727
489,p.thoison,Thới Sơn,An Giang,10.6157,105.0018,1981-2000,20,2011-2017,7,52,49.832480524896866
490,thon4,Thôn 4,Gia Lai,13.878,107.98,1981-2000,20,2011-2017,7,760,132.66244105503824
491,p.thongnhatnt,Thống Nhất,Thanh Hóa,20.0824,105.4852,1981-2000,20,2011-2017,7,76,52.166000881068946
492,p.thotnot,Thớt Nốt,Cần Thơ,10.2657,105.5351,1981-2000,20,2011-2017,7,9,42.18681125222783
493,thuanan,Thuận An,Bình Dương,10.9,106.7,1981-2000,20,2011-2017,7,8,24.927629568439496
494,thuanchau,Thuận Châu,Sơn La,21.43,103.7,1981-2000,20,2011-2017,7,564,287.94918159105157
495,thuongcat,Thượng Cát,Hà Nội,21.0757,105.8745,1981-2000,20,2011-2020,10,14,80.00411684610044
496,thuongnhat,Thượng Nhật,Huế,16.1236,107.6872,1981-2000,20,2011-2020,10,91,24.84372181618551
497,thuongtin,Thường Tín,Hà Nội,20.9,105.883,1981-2000,20,2011-2017,7,12,77.20359231767569
498,p.thuynguyen,Thủy Nguyên,HaiPhong,20.9157,106.6852,1981-2000,20,2011-2017,7,22,3.4855066980728107
499,tienphuoc,Tiên Phước,Quảng Nam,15.483,108.3,1981-2000,20,2011-2017,7,46,30.698125047509382
500,tienyen,Tiên Yên,Quảng Ninh,21.333,107.4,1981-2000,20,2011-2020,10,9,1.6471527431845003
501,p.tieucan,Thanh Hòa Sơn,Trà Vinh,9.799,106.1684,,#VALUE!,,#VALUE!,7,7.363986715012189
502,tinhgia,Tĩnh Gia,Thanh Hóa,19.45,105.783,1981-2000,20,2011-2020,10,11,2.702581661988515
503,p.tinhtuc,Tĩnh Túc,Cao Bằng,22.6657,105.8519,1981-2000,20,2011-2017,7,976,199.64100951912573
504,trabong,Trà Bồng,Quãng Ngãi,15.249,108.535,1981-2000,20,2011-2017,7,63,24.535305197310844
505,tracu,Trà Cú,Trà Vinh,9.72,106.2,1981-2000,20,2011-2017,7,8,3.3731289527857946
506,p.trakhuctv,Trà Khúc,Quảng Ngãi,15.1377,108.8082,1981-2000,20,2011-2020,10,5,6.06927238449799
507,p.tramtau,Trạm Tấu,Yên Bái,21.4824,104.3685,1981-2000,20,2011-2017,7,860,238.1005954569268
508,tramy,Trà My,Quảng Nam,15.333,108.25,1981-2000,20,2011-2020,10,149,42.85223536127352
509,p.tranvanthoi,Trần Văn Thời,Cà Mau,9.05,104.967,1981-2000,20,2011-2017,7,8,17.5354539422162
510,p.traon,Trà Ôn,Vĩnh Long,9.967,105.933,1981-2000,20,2011-2017,7,7,1.0412821922997184
511,travinh,Trà Vinh,Trà Vinh,9.97,106.35,1981-2000,20,2011-2020,10,7,0.23007761892719147
512,trian,Trị An,Bình Dương,11.1,107.0,1981-2000,20,2011-2020,10,41,44.357728696429675
513,p.trieuduong,Triều Dương,Hưng Yên,20.65,106.133,1981-2000,20,2011-2020,10,9,41.961250177739906
514,p.trieuson,Triệu Sơn,Thanh Hoá,19.817,105.6,1981-2000,20,2011-2017,7,13,28.430583313786087
515,triton,Tri Tôn,An Giang,10.43,105.05,1981-2000,20,2011-2017,7,10,36.43834292831912
516,trucphuong,Trực Phương,Nam Định,20.316409,106.301876,1981-2000,20,2011-2020,10,11,14.192131144527714
517,trungha,Trung Hà,Hà Nội,21.2417,105.3469,1981-2000,20,2011-2020,10,25,136.72757320406384
518,trungkhanh,Trùng Khánh,Cao Bằng,22.833,106.517,1981-2000,20,2011-2020,10,607,190.65636950881338
519,tuangiao,tuangiao,Điện Biên,21.582,103.415,1981-2000,20,2011-2020,10,618,321.81030454369164
520,p.tuctrung,Túc Trưng,Đồng Nai,11.25,107.45,1981-2000,20,2011-2017,7,115,74.03833326461138
521,p.tuky,Tứ Kỳ,Hải Dương,20.8,106.4,1981-2000,20,2011-2017,7,12,24.645532459087267
522,tuly,Tu Lý,Hoà Binh,20.567,105.25,1981-2000,20,2011-2017,7,264,102.24636930331606
523,tuongduong,Tương Dương,Nghệ An,19.283,104.433,1981-2000,20,2011-2020,10,150,128.14891711680005
524,tuyenhoa,Tuyên Hóa,Quảng Bình,17.883,106.016,1981-2000,20,2011-2020,10,21,31.05405106947165
525,tuyennhon,Tuyên Nhơn,Long An,10.65,106.18,1981-2000,20,2011-2020,10,5,44.65812279571567
526,tuyenquang,Tuyên Quang,Tuyên Quang,21.81,105.216,1981-2000,20,2011-2020,10,20,171.7377515395218
527,tuyhoa,Tuy Hòa,Phú Yên,13.083,109.283,1981-2000,20,2011-2020,10,10,4.936119451946894
528,uminh,U Minh,Cà Mau,9.416,104.968,1981-2000,20,2011-2017,7,10,15.457500345166823
529,uongbi,Uông Bí,Quảng Ninh,21.033,106.75,1981-2000,20,2011-2020,10,7,1.018140819598522
530,p.vamkinhtv,Vàm Kinh,Tiền Giang,10.267,106.75,1981-2000,20,2011-2020,10,1,0.5441530735342766
531,p.vamnaotv,Vàm Nao,An Giang,10.567,105.35,1981-2000,20,2011-2020,10,7,64.79260902249123
532,p.vanban,Văn Bàn,Lào Cai,22.05,104.15,1981-2000,20,2011-2017,7,454,282.1356373736764
533,vancanh,Vân Canh,Bình Định,13.616,109.002,1981-2000,20,2011-2017,7,46,22.627378309567312
534,vanchan,Văn Chấn/ Nghĩa Lộ,Yên Bái,21.583,104.516,1981-2000,20,2011-2020,10,271,229.16459522792655
535,p.vandinh,Vân Đình,Hà Nội,20.733,105.767,1981-2000,20,2011-2017,7,10,81.1443189124397
536,p.vangiang,Văn Giang,Hưng Yên,20.983,105.933,1981-2000,20,2011-2017,7,11,73.82659702704647
537,p.vanlinh,Vạn Linh,Lạng Sơn,21.667,106.5,,#VALUE!,,#VALUE!,365,72.97596529568945
538,vanly,Văn Lý,Nam Định,20.117,106.3,1981-2000,20,2011-2020,10,19,1.0304864009393568
539,vanmich,Văn Mịch,Lạng Sơn,22.090234,106.39164,1981-2000,20,2011-2020,10,201,121.15302276065668
540,vanyen,Vạn Yên,Sơn   La,21.0683,104.7092,1981-2000,20,2011-2020,10,111,181.1643344273668
541,p.nt15,Viên An Đông,Cà Mau,8.6823,104.9518,1981-2000,20,2011-2017,7,7,1.8745151105686355
542,vietlam,Việt Lâm,Hà Giang,22.599,104.918,1981-2000,20,2011-2017,7,512,249.60738265726428
543,viettri,Việt Trì,Phú Thọ,21.3,105.416,1981-2000,20,2011-2020,10,15,131.02444651044132
544,p.viettrung,Việt Trung,Quảng Bình,17.483,106.517,1981-2000,20,2011-2017,7,20,10.947986698652157
545,vinh,Vinh,Nghệ An,18.666,105.7,1981-2000,20,2011-2020,10,7,5.363496878943396
546,p.vinhhoahung,Vĩnh Hoà Hưng,Kiên Giang,9.75,105.383,,#VALUE!,,#VALUE!,10,31.85829398879892
547,vinhkim,Vĩnh Kim,Bình Định,14.232,108.768,1981-2000,20,2011-2017,7,119,42.54287246756104
548,p.vinhthuan,Vĩnh Thuận,Kiên Giang,9.5,105.25,,#VALUE!,,#VALUE!,19,42.232268924767524
549,p.vinhtuong,Vĩnh Tường,Vĩnh Phúc,21.233,105.517,1981-2000,20,2011-2017,7,18,119.20223546755264
550,p.vinhtuytv,Vĩnh Tuy,Hà Giang,22.269,104.892,1981-2000,20,2011-2020,10,48,227.83698954110307
551,vinhhung,Vĩnh Hưng,Long An,10.887,105.781,,#VALUE!,,#VALUE!,12,80.59249337513137
552,vinhyen_vinhphuc,Vĩnh Yên,Vĩnh Phúc,21.317,105.6,1981-2000,20,2011-2020,10,18,113.08024848243542
553,vinhyen_laocai,Vĩnh Yên,Lào Cai,22.383,104.45,1981-2000,20,2011-2020,10,170,272.3486912632069
554,vithanh,Vị Thanh,Hậu Giang,9.817,105.45,1981-2000,20,2011-2020,10,6,37.1854447880745
555,p.vithuong,Vi Thượng,Hà Giang,22.233,104.75,,#VALUE!,,#VALUE!,129,237.42577713216804
556,p.voxu,Võ Xu,Bình Thuận,11.183,107.6,1981-2000,20,2011-2017,7,101,59.57535027332506
557,p.vuchan,Vũ Chấn,Thái Nguyên,21.833,106.067,1992-2000,9,2011-2017,7,168,107.93942517604793
558,vungtau,Vũng Tàu,Bà Rịa Vũng Tàu,10.5,107.2,1981-2000,20,2011-2020,10,17,3.6279202633583605
559,p.vuquangtv,Vụ Quang,Phú Thọ,21.5,105.3,1981-2000,20,2011-2020,10,23,149.0441891481319
560,xala,Xã Là,Sơn La,20.94,103.92,1981-2000,20,2011-2020,10,284,240.20447263978923
561,p.xalat,Lát,Lâm Đồng,12.05,108.417,1981-2000,20,2011-2017,7,1544,80.04694781014575
562,p.xeorotv,Xẻo Rô,Kiên Giang,9.867,105.1,1981-2000,20,2011-2020,10,3,0.9756919945267646
563,p.xuangiang,Xuân Giang,Hà Giang,22.3,104.633,,#VALUE!,,#VALUE!,410,251.56646378530448
564,p.xuanhoa,Xuân Hoà,Vĩnh Phúc,21.283,105.717,1981-2000,20,2011-2017,7,15,100.37480804363351
565,p.xuankhanhtv,Xuân Khánh,Thanh Hoá,19.933,105.533,1981-2000,20,2011-2020,10,15,39.232066190516655
566,xuanloc,Xuân Lộc/Long Khánh,Đồng Nai,10.933,107.233,,#VALUE!,2011-2020,10,188,37.466340482762156
567,xuanmai,Xuân Mai,Hà Nội,20.92,105.59,1981-2000,20,2011-2017,7,8,105.40162188705311
568,p.xuantotv,Xuân Tô,An Giang,10.6,104.933,1981-2000,20,2011-2017,7,5,44.88689055347143
569,p.xuyenmoc,Xuyên Mộc,Bà Rịa - Vũng Tàu,10.533,107.367,1981-2000,20,2011-2017,,7,8.000337286880283
570,yaly,Ya Ly,Kon Tum,14.21,107.75,,#VALUE!,2011-2020,,424,146.901969062658
571,yenbai,Yên Bái,Yên Bái,21.7,104.87,1981-2000,20,2011-2020,,19,198.5567963541722
572,p.yencat,Yên Cát,Thanh Hoá,19.667,105.533,1981-2000,20,2011-2017,,56,27.936425966079522
573,yenchau,Yên Châu,Sơn La,21.216,104.3,1981-2000,20,2011-2020,,341,223.98998425946363
574,yendinh,Yên Định,Thanh Hóa,19.983,105.667,1981-2000,20,2011-2020,,8,30.634794543771886
575,p.yenhung,Yên Hưng,Quảng Ninh,20.95,106.8,1981-2000,20,2011-2017,,15,1.5071138889684899
576,p.yenlap,Yên Lập,Thái Bình,20.55,106.5,1981-2000,20,2011-2017,,16,2.1791590415539774
577,p.yenluong,Yên Lương,Phú Thọ,20.967,105.217,1981-2000,20,2011-2017,,226,136.294294000626
578,p.yenminh,Yên Minh,Hà Giang,23.133,105.15,1981-2000,20,2011-2017,,822,280.00688058945684
579,p.yenphong,Yên Phong,Bắc Ninh,21.183,105.95,1981-2000,20,2011-2017,,17,74.1219521654302
580,yenthe,Yên Thế,Bắc Giang,21.4657,106.1185,1981-2000,20,2011-2017,,28,73.38787877914062
581,yenthuong,Yên Thượng,Nghệ An,18.6965,105.4336,,#VALUE!,,,12,30.48044829119148
582,p.yenthuy,Yên Thuỷ,Hoà Binh,20.383,105.617,1981-2000,20,2011-2017,,51,60.193782248028306
583,p.yty,Y Ty,Lào Cai,22.633,103.633,1981-2000,20,2011-2017,,1984,358.59244720212405
